{
  "empresas": [
    {
      "id": 1,
      "name": "Peluquería Estilo y Belleza",
      "emprendedor": "María López",
      "ubicacion": {
        "latitud": 39.88131834656205,
        "longitud": -4.034011390818006
      },
      "servicio": "Peluquería y estilismo",
      "telefono": "+34 987 654 321",
      "horario": "Lunes a viernes: 9:00 - 19:00, Sábado: 9:00 - 14:00",
      "categorias": [
        "Peluquería",
        "Belleza"
      ],
      "rating": 7
    },
    {
      "id": 2,
      "name": "Taller Mecánico El Progreso",
      "emprendedor": "Juan García",
      "ubicacion": {
        "latitud": 39.80905859527229,
        "longitud": -4.056256016425615
      },
      "servicio": "Reparación de automóviles",
      "telefono": "+34 912 345 678",
      "horario": "Lunes a viernes: 8:00 - 18:00",
      "categorias": [
        "Taller mecánico",
        "Automóviles"
      ],
      "rating": 8
    },
    {
      "id": 3,
      "name": "Cafetería El Rincón de los Sabores",
      "emprendedor": "Pedro Martínez",
      "ubicacion": {
        "latitud": 39.93879103362934,
        "longitud": -4.020037515702591
      },
      "servicio": "Cafetería y pastelería",
      "telefono": "+34 654 987 321",
      "horario": "Todos los días: 7:00 - 21:00",
      "categorias": [
        "Cafetería",
        "Pastelería"
      ],
      "rating": 6
    },
    {
      "id": 4,
      "name": "Electricidad El Faro",
      "emprendedor": "Ana Rodríguez",
      "ubicacion": {
        "latitud": 39.9612384961952,
        "longitud": -3.8828514401100644
      },
      "servicio": "Servicios eléctricos",
      "telefono": "+34 667 123 456",
      "horario": "Lunes a sábado: 9:00 - 18:00",
      "categorias": [
        "Electricidad",
        "Servicios"
      ],
      "rating": 9
    },
    {
      "id": 5,
      "name": "Florería La Primavera",
      "emprendedor": "Luisa Sánchez",
      "ubicacion": {
        "latitud": 40.09073395536848,
        "longitud": -3.875102176280816
      },
      "servicio": "Venta de flores y arreglos florales",
      "telefono": "+34 678 234 567",
      "horario": "Lunes a domingo: 8:00 - 20:00",
      "categorias": [
        "Florería",
        "Decoración"
      ],
      "rating": 8
    },
    {
      "id": 6,
      "name": "Diseño Gráfico Creativo",
      "emprendedor": "María Gómez",
      "ubicacion": {
        "latitud": 39.806538314884854,
        "longitud": -4.028039835104117
      },
      "servicio": "Diseño gráfico",
      "telefono": "+34 645 321 987",
      "horario": "Flexible, con cita previa",
      "categorias": [
        "Diseño gráfico",
        "Publicidad"
      ],
      "rating": 7
    },
    {
      "id": 7,
      "name": "Asesoría Contable y Fiscal",
      "emprendedor": "Juan Pérez",
      "ubicacion": {
        "latitud": 39.93651409981676,
        "longitud": -3.9191078758634914
      },
      "servicio": "Asesoría contable y fiscal",
      "telefono": "+34 678 987 654",
      "horario": "Lunes a viernes: 9:00 - 18:00, Sábado: 9:00 - 13:00",
      "categorias": [
        "Asesoría contable",
        "Asesoría fiscal"
      ],
      "rating": 9
    },
    {
      "id": 8,
      "name": "Masajista Terapéutico",
      "emprendedor": "Laura Fernández",
      "ubicacion": {
        "latitud": 39.807882183066305,
        "longitud": -4.060425016854745
      },
      "servicio": "Masajes terapéuticos",
      "telefono": "+34 689 234 567",
      "horario": "Flexible, con cita previa",
      "categorias": [
        "Masajes",
        "Salud"
      ],
      "rating": 6
    },
    {
      "id": 9,
      "name": "Entrenador Personal",
      "emprendedor": "Sergio Martín",
      "ubicacion": {
        "latitud": 39.98165049940761,
        "longitud": -4.281599624840911
      },
      "servicio": "Entrenamiento personalizado",
      "telefono": "+34 657 876 543",
      "horario": "Flexible, adaptado a las necesidades del cliente",
      "categorias": [
        "Entrenamiento",
        "Salud"
      ],
      "rating": 8
    },
    {
      "id": 10,
      "name": "Reparación de Ordenadores",
      "emprendedor": "José García",
      "ubicacion": {
        "latitud": 39.951729496473824, 
        "longitud": -3.995906098455513
      },
      "servicio": "Reparación de ordenadores",
      "telefono": "+34 678 345 678",
      "horario": "Lunes a viernes: 10:00 - 19:00",
      "categorias": [
        "Informática",
        "Servicios"
      ],
      "rating": 7
    }
  ]
}